stop_id,stop_name,stop_lat,stop_lon
822GA00058,St.Stephen's Green,53.33912871,-6.261117488
822GA00062,Harcourt,53.33365091,-6.262691737
822GA00070,Charlemont,53.33061525,-6.258535989
822GA00071,Charlemont,53.3308339,-6.258737285
822GA00074,Ranelagh,53.32613982,-6.25612105
822GA00075,Ranelagh,53.32613194,-6.256196436
822GA00083,Beechwood,53.32092341,-6.254667551
822GA00084,Beechwood,53.32093174,-6.254622178
822GA00275,Cowper,53.31639341,-6.25344152
822GA00276,Cowper,53.31640107,-6.25335115
822GA00278,Milltown,53.30967244,-6.251749984
822GA00279,Milltown,53.30967156,-6.251689992
822GA00356,Kylemore,53.32658896,-6.343763371
822GA00357,Kylemore,53.3266345,-6.343806646
822GA00360,Bluebell,53.32928179,-6.333825003
822GA00361,Bluebell,53.32931856,-6.333883625
822GA00363,Blackhorse,53.33426302,-6.327534513
822GA00364,Blackhorse,53.33429937,-6.327563122
822GA00366,Drimnagh,53.33534619,-6.318272318
822GA00367,Drimnagh,53.33539132,-6.318285559
822GA00369,Goldenbridge,53.33591429,-6.313309638
822GA00370,Goldenbridge,53.33595962,-6.313337881
822GA00372,Suir Road,53.33659218,-6.307231258
822GA00373,Suir Road,53.33663752,-6.307259495
822GA00375,Rialto,53.33789919,-6.297388457
822GA00376,Rialto,53.33794453,-6.297416684
822GA00378,Fatima,53.33841745,-6.292772571
822GA00379,Fatima,53.33846258,-6.292785785
822GA00381,James's,53.34181261,-6.293237662
822GA00382,James's,53.34177775,-6.293314146
822GA00386,Heuston,53.34668128,-6.29178149
822GA00387,Heuston,53.34668236,-6.291856547
822GA00389,Museum,53.34787921,-6.286942065
822GA00390,Museum,53.34791536,-6.286955636
822GA00398,Smithfield,53.3471135,-6.278080805
822GA00399,Smithfield,53.34714965,-6.278094368
822GA00401,Four Courts,53.34685189,-6.273660411
822GA00402,Four Courts,53.3468876,-6.273643948
822GA00404,Jervis,53.34768301,-6.265275464
822GA00405,Jervis,53.34770996,-6.26527437
822GA00408,Abbey Street,53.34856372,-6.258480358
822GA00409,Abbey Street,53.34859089,-6.258494272
822GA00420,Busáras,53.35011665,-6.251582347
822GA00421,Busáras,53.35015192,-6.251535839
822GA00423,Connolly,53.35098349,-6.250014659
822GA00424,Connolly,53.351003,-6.250119012
822GA00427,George's Dock,53.34942861,-6.247569832
822GA00428,George's Dock,53.34947353,-6.24756799
822GA00430,Mayor Square - NCI,53.34916764,-6.243269507
822GA00431,Mayor Square - NCI,53.34920357,-6.243268029
822GA00433,Spencer Dock,53.34878043,-6.237126865
822GA00434,Spencer Dock,53.34882534,-6.237125012
822GA00436,The Point,53.34827635,-6.22918668
822GA00437,The Point,53.34834821,-6.229183701
822GA00440,Harcourt,53.33362462,-6.262737852
822GA00441,Dawson,53.34217478,-6.257974811
822GA00443,Westmoreland,53.34635987,-6.258975733
822GA00444,O'Connell - GPO,53.34884481,-6.259880861
822GA00447,Marlborough,53.34924487,-6.257731582
822GA00448,"Trinity College, Trinity",53.34527975,-6.258253746
822GA00452,Grangegorman,53.35719648,-6.277343774
822GA00455,Phibsborough,53.36037351,-6.278883375
822GA00459,Broombridge,53.37223781,-6.29768727
823GA00338,Cookstown,53.29329316,-6.384084795
823GA00339,Cookstown,53.29325763,-6.384116138
823GA00341,Hospital,53.28934825,-6.378848791
823GA00342,Hospital,53.28931333,-6.378925111
823GA00344,Tallaght,53.28745747,-6.374645647
823GA00345,Tallaght,53.28740296,-6.37460272
823GA00347,Belgard,53.29924532,-6.374978192
823GA00348,Belgard,53.29929146,-6.375066459
823GA00350,Kingswood,53.30364505,-6.365448157
823GA00351,Kingswood,53.30369079,-6.365506429
823GA00353,Red Cow,53.31674596,-6.369780553
823GA00354,Red Cow,53.31672882,-6.369841244
823GA00392,Fettercairn,53.29331752,-6.395874728
823GA00393,Fettercairn,53.29337223,-6.395932682
823GA00395,Cheeverstown,53.29100614,-6.40649151
823GA00396,Cheeverstown,53.29105166,-6.406534816
823GA00412,Citywest Campus,53.28779976,-6.418820111
823GA00413,Citywest Campus,53.28786423,-6.418937723
823GA00415,Fortunestown,53.28425595,-6.42474013
823GA00416,Fortunestown,53.28431005,-6.424753138
823GA00418,Saggart,53.28477751,-6.437739215
823GA00419,Saggart,53.28482282,-6.437767558
825GA00281,Windy Arbour,53.30174756,-6.250708361
825GA00282,Windy Arbour,53.30174668,-6.250648379
825GA00286,Dundrum,53.29239052,-6.245180323
825GA00287,Dundrum,53.29242557,-6.245118882
825GA00291,Balally,53.28605471,-6.236710655
825GA00292,Balally,53.28609852,-6.236633856
825GA00293,Sandyford,53.27763019,-6.204621234
825GA00294,Sandyford,53.27767443,-6.204574391
825GA00295,Kilmacud,53.28291052,-6.224107001
825GA00296,Kilmacud,53.28296442,-6.224104766
825GA00297,Stillorgan,53.27936144,-6.21036734
825GA00298,Stillorgan,53.27941466,-6.210320126
825GA00310,Central Park,53.27016803,-6.20389942
825GA00311,Central Park,53.27010334,-6.203782184
825GA00313,Glencairn,53.2663249,-6.210132292
825GA00314,Glencairn,53.26626785,-6.209924787
825GA00316,The Gallops,53.26109321,-6.205913697
825GA00317,The Gallops,53.2611462,-6.205851517
825GA00319,Leopardstown Valley,53.25824726,-6.198388324
825GA00320,Leopardstown Valley,53.2583007,-6.198356099
825GA00322,Ballyogan Wood,53.25499795,-6.184466046
825GA00323,Ballyogan Wood,53.25506913,-6.184418067
825GA00325,Carrickmines,53.25436091,-6.171603419
825GA00326,Carrickmines,53.25440536,-6.171571547
825GA00329,Laughanstown,53.25059971,-6.155008769
825GA00330,Laughanstown,53.25063471,-6.154947316
825GA00332,Cherrywood,53.24534441,-6.145929315
825GA00333,Cherrywood,53.24538769,-6.145822549
825GA00335,Brides Glen,53.24187084,-6.142783092
825GA00336,Brides Glen,53.24187177,-6.142842986
gen:57102:3571:1,O'Connell Upper,53.35161192,-6.261029974
gen:57102:3573:1,Parnell,53.35310526,-6.260503484
gen:57102:3577:1,Dominick,53.35134512,-6.265547357
gen:57102:3584:1,Broadstone - DIT,53.35407075,-6.273759243
gen:57102:3587:1,Cabra,53.36433678,-6.281969292
